{
"type": "FeatureCollection",
"crs": { "type": "name", "properties": { "name": "urn:ogc:def:crs:OGC:1.3:CRS84" } },
                                                                                
"features": [
{ "type": "Feature", "properties": { "cat": 2, "cat_": 2, "Nombre": "Teknopartes", "Tipo": "Taller", "distrito": 6, "localidad": 2 }, "geometry": { "type": "Point", "coordinates": [ -84.06889438778947, 9.943878822777558 ] } },
{ "type": "Feature", "properties": { "cat": 3, "cat_": 3, "Nombre": "Aros Willy", "Tipo": "Taller", "distrito": 6, "localidad": 2 }, "geometry": { "type": "Point", "coordinates": [ -84.068919112705387, 9.944909785249067 ] } },
{ "type": "Feature", "id": -1294967292, "properties": { "cat": 4, "cat_": 4, "Nombre": "AMPM", "Tipo": "Abastecedor", "distrito": 6, "localidad": 1 }, "geometry": { "type": "Point", "coordinates": [ -84.070996005642257, 9.945510502039792 ] } },
{ "type": "Feature", "id": -294967291, "properties": { "cat": 5, "cat_": 5, "Nombre": "Pinturas Vastalux Ca", "Tipo": "Taller", "distrito": 6, "localidad": 2 }, "geometry": { "type": "Point", "coordinates": [ -84.067645779535781, 9.945157378114153 ] } },
{ "type": "Feature", "id": 705032710, "properties": { "cat": 6, "cat_": 6, "Nombre": "Abastecedor El Clave", "Tipo": "Abastecedor", "distrito": 6, "localidad": 2 }, "geometry": { "type": "Point", "coordinates": [ -84.067147160398193, 9.945100553538756 ] } },
{ "type": "Feature", "id": 1705032711, "properties": { "cat": 7, "cat_": 7, "Nombre": "Abastecedor La Prome", "Tipo": "Abastecedor", "distrito": 6, "localidad": 2 }, "geometry": { "type": "Point", "coordinates": [ -84.066454862752565, 9.94515737811415 ] } },
{ "type": "Feature", "id": -1589934584, "properties": { "cat": 8, "cat_": 8, "Nombre": "Lubricentro Car Plan", "Tipo": "Taller", "distrito": 6, "localidad": 2 }, "geometry": { "type": "Point", "coordinates": [ -84.06626530506388, 9.945043728953472 ] } },
{ "type": "Feature", "id": -589934583, "properties": { "cat": 9, "cat_": 9, "Nombre": "El Guadalupano Calle", "Tipo": "Ferreteria", "distrito": 6, "localidad": 2 }, "geometry": { "type": "Point", "coordinates": [ -84.065853223131967, 9.944995022158208 ] } },
{ "type": "Feature", "id": 410065418, "properties": { "cat": 10, "cat_": 10, "Nombre": "Tecno Autos La Flori", "Tipo": "Taller", "distrito": 6, "localidad": 2 }, "geometry": { "type": "Point", "coordinates": [ -84.064217257862268, 9.945441500842943 ] } },
{ "type": "Feature", "id": 1410065420, "properties": { "cat": 12, "cat_": 12, "Nombre": "Pulperia Ventana al", "Tipo": "Abastecedor", "distrito": 6, "localidad": 2 }, "geometry": { "type": "Point", "coordinates": [ -84.062659588159633, 9.946663225761499 ] } },
{ "type": "Feature", "id": -1884901875, "properties": { "cat": 13, "cat_": 13, "Nombre": "AlfaTea", "Tipo": "Restaurante", "distrito": 6, "localidad": 2 }, "geometry": { "type": "Point", "coordinates": [ -84.062618379966452, 9.946898640669362 ] } },
{ "type": "Feature", "id": -884901874, "properties": { "cat": 14, "cat_": 14, "Nombre": "Aire Acondicionado A", "Tipo": "Otros", "distrito": 6, "localidad": 2 }, "geometry": { "type": "Point", "coordinates": [ -84.062198056395872, 9.947113761040297 ] } },
{ "type": "Feature", "id": 115098127, "properties": { "cat": 15, "cat_": 15, "Nombre": "Bar Centro de Amigos", "Tipo": "Bar", "distrito": 6, "localidad": 5 }, "geometry": { "type": "Point", "coordinates": [ -84.062016740345854, 9.947657649648216 ] } },
{ "type": "Feature", "id": 1115098128, "properties": { "cat": 16, "cat_": 16, "Nombre": "Mangueras y Fitineri", "Tipo": "Taller", "distrito": 6, "localidad": 5 }, "geometry": { "type": "Point", "coordinates": [ -84.061678833161665, 9.948355773996951 ] } },
{ "type": "Feature", "id": 2115098129, "properties": { "cat": 17, "cat_": 17, "Nombre": "REMUSA", "Tipo": "Taller", "distrito": 6, "localidad": 5 }, "geometry": { "type": "Point", "coordinates": [ -84.061340925977476, 9.948554657986014 ] } },
{ "type": "Feature", "id": -1179869166, "properties": { "cat": 18, "cat_": 18, "Nombre": "Sur Color", "Tipo": "Ferreteria", "distrito": 6, "localidad": 5 }, "geometry": { "type": "Point", "coordinates": [ -84.060776373730775, 9.948554657986016 ] } },
{ "type": "Feature", "id": -179869165, "properties": { "cat": 19, "cat_": 19, "Nombre": "Soda Mil Sabores", "Tipo": "Restaurante", "distrito": 6, "localidad": 5 }, "geometry": { "type": "Point", "coordinates": [ -84.060689836525057, 9.948988955255524 ] } },
{ "type": "Feature", "id": 820130836, "properties": { "cat": 20, "cat_": 20, "Nombre": "Van Gogh del Este", "Tipo": "Bar", "distrito": 6, "localidad": 5 }, "geometry": { "type": "Point", "coordinates": [ -84.060174734110177, 9.949021426056225 ] } },
{ "type": "Feature", "id": 1820130837, "properties": { "cat": 21, "cat_": 21, "Nombre": "Spaguetti House", "Tipo": "Restaurante", "distrito": 6, "localidad": 5 }, "geometry": { "type": "Point", "coordinates": [ -84.059890397577135, 9.949269015805337 ] } },
{ "type": "Feature", "id": -1474836458, "properties": { "cat": 22, "cat_": 22, "Nombre": "Subway Montelimar", "Tipo": "Restaurante", "distrito": 6, "localidad": 5 }, "geometry": { "type": "Point", "coordinates": [ -84.058596460310952, 9.950226902247369 ] } },
{ "type": "Feature", "id": -474836457, "properties": { "cat": 23, "cat_": 23, "Nombre": "Moras Bar", "Tipo": "Bar", "distrito": 6, "localidad": 5 }, "geometry": { "type": "Point", "coordinates": [ -84.058340969513154, 9.950360843771733 ] } },
{ "type": "Feature", "id": 525163544, "properties": { "cat": 24, "cat_": 24, "Nombre": "Cafe Restaurante Tra", "Tipo": "Restaurante", "distrito": 6, "localidad": 5 }, "geometry": { "type": "Point", "coordinates": [ -84.057908283484636, 9.950628726655673 ] } },
{ "type": "Feature", "id": 1525163545, "properties": { "cat": 25, "cat_": 25, "Nombre": "Restaurante Montana", "Tipo": "Restaurante", "distrito": 6, "localidad": 5 }, "geometry": { "type": "Point", "coordinates": [ -84.056799783087783, 9.951180727056975 ] } },
{ "type": "Feature", "id": -1769803750, "properties": { "cat": 26, "cat_": 26, "Nombre": "Danilos Bar", "Tipo": "Bar", "distrito": 6, "localidad": 5 }, "geometry": { "type": "Point", "coordinates": [ -84.05659786294116, 9.951598785563519 ] } },
{ "type": "Feature", "id": -769803746, "properties": { "cat": 30, "cat_": 30, "Nombre": "Taller Mayco", "Tipo": "Taller", "distrito": 6, "localidad": 5 }, "geometry": { "type": "Point", "coordinates": [ -84.056416546891157, 9.951840285136527 ] } },
{ "type": "Feature", "id": 230196291, "properties": { "cat": 67, "cat_": 67, "Nombre": "Pali Calle Blancos", "Tipo": "Abastecedor", "distrito": 6, "localidad": 3 }, "geometry": { "type": "Point", "coordinates": [ -84.065919156241165, 9.947834210307605 ] } },
{ "type": "Feature", "id": 1230196295, "properties": { "cat": 71, "cat_": 71, "Nombre": "Bar Astroboy", "Tipo": "Bar", "distrito": 6, "localidad": 4 }, "geometry": { "type": "Point", "coordinates": [ -84.07708451618646, 9.946659166882281 ] } },
{ "type": "Feature", "id": -2064770999, "properties": { "cat": 73, "cat_": 73, "Nombre": "Boutique Pequenines", "Tipo": "Otros", "distrito": 6, "localidad": 5 }, "geometry": { "type": "Point", "coordinates": [ -84.05690074316125, 9.951716491260063 ] } },
{ "type": "Feature", "id": -1064770998, "properties": { "cat": 74, "cat_": 74, "Nombre": "Restaurante Tribu", "Tipo": "Restaurante", "distrito": 6, "localidad": 5 }, "geometry": { "type": "Point", "coordinates": [ -84.057119146585151, 9.951830138099227 ] } }
]
}
