{
"type": "FeatureCollection",
"crs": { "type": "name", "properties": { "name": "urn:ogc:def:crs:OGC:1.3:CRS84" } },
                                                                                
"features": [
{ "type": "Feature", "properties": { "cat": 11, "cat_": 11, "Nombre": "Walmart Guadalupe", "Tipo": "Abastecedor", "distrito": 5, "localidad": 7 }, "geometry": { "type": "Point", "coordinates": [ -84.060154130013586, 9.943923470826006 ] } },
{ "type": "Feature", "properties": { "cat": 27, "cat_": 27, "Nombre": "Mi Taberna", "Tipo": "Bar", "distrito": 5, "localidad": 5 }, "geometry": { "type": "Point", "coordinates": [ -84.055889082018282, 9.951497315101415 ] } },
{ "type": "Feature", "id": -1294967268, "properties": { "cat": 28, "cat_": 28, "Nombre": "Jetbox", "Tipo": "Otros", "distrito": 5, "localidad": 5 }, "geometry": { "type": "Point", "coordinates": [ -84.055580020569323, 9.951708373627188 ] } },
{ "type": "Feature", "id": -294967267, "properties": { "cat": 29, "cat_": 29, "Nombre": "Fathers Home", "Tipo": null, "distrito": 5, "localidad": 5 }, "geometry": { "type": "Point", "coordinates": [ -84.054830031453236, 9.951318727011518 ] } },
{ "type": "Feature", "id": 705032735, "properties": { "cat": 31, "cat_": 31, "Nombre": "Mas X Menos Guadalup", "Tipo": "Abastecedor", "distrito": 5, "localidad": 2 }, "geometry": { "type": "Point", "coordinates": [ -84.055777819896704, 9.945804771686294 ] } },
{ "type": "Feature", "id": 1705032736, "properties": { "cat": 32, "cat_": 32, "Nombre": "Floristeria Selva Ma", "Tipo": "Otros", "distrito": 5, "localidad": 2 }, "geometry": { "type": "Point", "coordinates": [ -84.054875360465815, 9.945812889465902 ] } },
{ "type": "Feature", "id": -1589934559, "properties": { "cat": 33, "cat_": 33, "Nombre": "Restaurante Marisque", "Tipo": "Restaurante", "distrito": 5, "localidad": 2 }, "geometry": { "type": "Point", "coordinates": [ -84.056288801492286, 9.945037640604458 ] } },
{ "type": "Feature", "id": -589934558, "properties": { "cat": 34, "cat_": 34, "Nombre": "Soda La Noche Buena", "Tipo": "Restaurante", "distrito": 5, "localidad": 2 }, "geometry": { "type": "Point", "coordinates": [ -84.055308046494332, 9.945593709346015 ] } },
{ "type": "Feature", "id": 410065443, "properties": { "cat": 35, "cat_": 35, "Nombre": "Bar La Milena", "Tipo": "Bar", "distrito": 5, "localidad": 2 }, "geometry": { "type": "Point", "coordinates": [ -84.054290204122495, 9.946056422759996 ] } },
{ "type": "Feature", "id": 1410065444, "properties": { "cat": 36, "cat_": 36, "Nombre": "San Gil", "Tipo": "Otros", "distrito": 5, "localidad": 2 }, "geometry": { "type": "Point", "coordinates": [ -84.053725651875766, 9.946442016771085 ] } },
{ "type": "Feature", "id": -1884901851, "properties": { "cat": 37, "cat_": 37, "Nombre": "Musmanni", "Tipo": "Abastecedor", "distrito": 5, "localidad": 2 }, "geometry": { "type": "Point", "coordinates": [ -84.053255878473408, 9.945735770551606 ] } },
{ "type": "Feature", "id": -884901850, "properties": { "cat": 38, "cat_": 38, "Nombre": "Cafe Montero", "Tipo": "Restaurante", "distrito": 5, "localidad": 2 }, "geometry": { "type": "Point", "coordinates": [ -84.053025112591527, 9.945861596139224 ] } },
{ "type": "Feature", "id": 115098151, "properties": { "cat": 39, "cat_": 39, "Nombre": "Panaderia Duran", "Tipo": "Abastecedor", "distrito": 5, "localidad": 2 }, "geometry": { "type": "Point", "coordinates": [ -84.051887766459444, 9.946470428943375 ] } },
{ "type": "Feature", "id": 1115098152, "properties": { "cat": 40, "cat_": 40, "Nombre": "Soda Jade", "Tipo": "Restaurante", "distrito": 5, "localidad": 2 }, "geometry": { "type": "Point", "coordinates": [ -84.051516892720699, 9.946519135518681 ] } },
{ "type": "Feature", "id": 2115098153, "properties": { "cat": 41, "cat_": 41, "Nombre": "De Moda", "Tipo": "Ropa", "distrito": 5, "localidad": 2 }, "geometry": { "type": "Point", "coordinates": [ -84.052283365114079, 9.947533854186464 ] } },
{ "type": "Feature", "id": -1179869142, "properties": { "cat": 42, "cat_": 42, "Nombre": "Tire Kingdom", "Tipo": "Taller", "distrito": 5, "localidad": 5 }, "geometry": { "type": "Point", "coordinates": [ -84.048974347200826, 9.949283221768866 ] } },
{ "type": "Feature", "id": -179869141, "properties": { "cat": 43, "cat_": 43, "Nombre": "GESO", "Tipo": "Ropa", "distrito": 5, "localidad": 2 }, "geometry": { "type": "Point", "coordinates": [ -84.049266925372493, 9.948633805662267 ] } },
{ "type": "Feature", "id": 820130860, "properties": { "cat": 44, "cat_": 44, "Nombre": "Ferreteria El Mazazo", "Tipo": "Ferreteria", "distrito": 5, "localidad": 1 }, "geometry": { "type": "Point", "coordinates": [ -84.047948263190364, 9.950253284673165 ] } },
{ "type": "Feature", "id": 1820130861, "properties": { "cat": 45, "cat_": 45, "Nombre": "McDonalds", "Tipo": "Restaurante", "distrito": 5, "localidad": 1 }, "geometry": { "type": "Point", "coordinates": [ -84.048249083000599, 9.951077227052815 ] } },
{ "type": "Feature", "id": -1474836434, "properties": { "cat": 46, "cat_": 46, "Nombre": "Burger King", "Tipo": "Restaurante", "distrito": 5, "localidad": 1 }, "geometry": { "type": "Point", "coordinates": [ -84.048595231823441, 9.951138109412174 ] } },
{ "type": "Feature", "id": -474836433, "properties": { "cat": 47, "cat_": 47, "Nombre": "Pasteleria Merayo", "Tipo": "Abastecedor", "distrito": 5, "localidad": 1 }, "geometry": { "type": "Point", "coordinates": [ -84.049250442095172, 9.950931109344017 ] } },
{ "type": "Feature", "id": 525163568, "properties": { "cat": 48, "cat_": 48, "Nombre": "ARMI-PRONTO", "Tipo": "Ropa", "distrito": 5, "localidad": 1 }, "geometry": { "type": "Point", "coordinates": [ -84.049398791590662, 9.950833697501842 ] } },
{ "type": "Feature", "id": 1525163569, "properties": { "cat": 49, "cat_": 49, "Nombre": "Extremos", "Tipo": "Ropa", "distrito": 5, "localidad": 5 }, "geometry": { "type": "Point", "coordinates": [ -84.050111693332894, 9.950784991569853 ] } },
{ "type": "Feature", "id": -1769803726, "properties": { "cat": 50, "cat_": 50, "Nombre": "Rape", "Tipo": "Ropa", "distrito": 5, "localidad": 5 }, "geometry": { "type": "Point", "coordinates": [ -84.049959223018064, 9.950370990854681 ] } },
{ "type": "Feature", "id": -769803725, "properties": { "cat": 51, "cat_": 51, "Nombre": "Gato Pardo", "Tipo": "Ropa", "distrito": 5, "localidad": 1 }, "geometry": { "type": "Point", "coordinates": [ -84.049378187494071, 9.951280168206575 ] } },
{ "type": "Feature", "id": 230196276, "properties": { "cat": 52, "cat_": 52, "Nombre": "MultiAutos", "Tipo": "Taller", "distrito": 5, "localidad": 1 }, "geometry": { "type": "Point", "coordinates": [ -84.048249083000641, 9.952790046430671 ] } },
{ "type": "Feature", "id": 1230196277, "properties": { "cat": 53, "cat_": 53, "Nombre": "Taller Carvajal", "Tipo": "Taller", "distrito": 5, "localidad": 3 }, "geometry": { "type": "Point", "coordinates": [ -84.043444207674483, 9.951308579958024 ] } },
{ "type": "Feature", "id": -2064771004, "properties": { "cat": 68, "cat_": 68, "Nombre": "Pali El Alto", "Tipo": "Abastecedor", "distrito": 5, "localidad": 6 }, "geometry": { "type": "Point", "coordinates": [ -84.039644812262324, 9.956990880556356 ] } },
{ "type": "Feature", "id": -1064771003, "properties": { "cat": 69, "cat_": 69, "Nombre": "Pizza Hut", "Tipo": "Restaurante", "distrito": 5, "localidad": 7 }, "geometry": { "type": "Point", "coordinates": [ -84.064161626801592, 9.942113190518226 ] } },
{ "type": "Feature", "id": -64771002, "properties": { "cat": 70, "cat_": 70, "Nombre": "McDonalds", "Tipo": "Restaurante", "distrito": 5, "localidad": 7 }, "geometry": { "type": "Point", "coordinates": [ -84.064136901885675, 9.941983304550117 ] } },
{ "type": "Feature", "id": 935229000, "properties": { "cat": 72, "cat_": 72, "Nombre": "Bar Los Arboles", "Tipo": "Bar", "distrito": 5, "localidad": 4 }, "geometry": { "type": "Point", "coordinates": [ -84.039650993491406, 9.955020351086869 ] } }
]
}
